[{"datasetid": "theatres-et-salles-de-spectacles", "recordid": "832ec3d85e5686178c3e4e43d43089b2d600c30a", "fields": {"id_secteur_postal": "31400", "eq_telephone": "05 61 33 37 77", "eq_nom_equipement": "CASINO THEATRE BARRIERE", "eq_jauge_salle_de_spectacle": "1200 pl", "eq_site_web": "www.lucienbarriere.com", "geo_point_2d": [43.5727329415839, 1.434828372335126], "numero": "0018", "lib_off": "CHE DE LA LOGE", "geo_shape": {"type": "Point", "coordinates": [1.434828372335126, 43.5727329415839]}, "eq_secteur": "5", "eq_acces_bus": "Navette gratuite", "eq_quartier": "5.3", "y": "2264803", "x": "1573578", "eq_ville": "TOULOUSE", "eq_gestionnaire": "Structure commerciale"}, "geometry": {"type": "Point", "coordinates": [1.434828372335126, 43.5727329415839]}, "record_timestamp": "2017-01-01T06:00:05+01:00"},{"datasetid": "theatres-et-salles-de-spectacles", "recordid": "87dce4a15b9003a79be2b663a72b68771e94feeb", "fields": {"id_secteur_postal": "31200", "eq_telephone": "05 31 22 98 00", "eq_nom_equipement": "CENTRE CULTUREL - THEATRE DES MAZADES", "eq_jauge_salle_de_spectacle": "550 / 56 pl", "eq_site_web": "www.toulouse.fr", "geo_point_2d": [43.62399026128579, 1.438656466667182], "numero": "0010", "lib_off": "AV DES MAZADES", "geo_shape": {"type": "Point", "coordinates": [1.438656466667182, 43.62399026128579]}, "eq_secteur": "3", "eq_acces_bus": "27, 41, 29", "eq_quartier": "3.1", "y": "2270491", "x": "1573993", "eq_ville": "TOULOUSE", "eq_acces_metro": "Minimes - Claude Nougaro - Barri\u00e8re de Paris (B)", "eq_gestionnaire": "Mairie de Toulouse - DGA Culture"}, "geometry": {"type": "Point", "coordinates": [1.438656466667182, 43.62399026128579]}, "record_timestamp": "2017-01-01T06:00:05+01:00"},{"datasetid": "theatres-et-salles-de-spectacles", "recordid": "01615f09e839616b80661255e4a211a3eff733e2", "fields": {"id_secteur_postal": "31100", "eq_telephone": "05 61 41 56 80", "eq_nom_equipement": "CENTRE D'ANIMATION REYNERIE", "eq_site_web": "www.toulouse.fr", "geo_point_2d": [43.57042284825562, 1.402856530825981], "numero": "0003", "lib_off": "PL ANDRE ABBAL", "geo_shape": {"type": "Point", "coordinates": [1.402856530825981, 43.57042284825562]}, "eq_secteur": "6", "eq_acces_bus": "Ligne14, arr\u00eat Reynerie", "eq_quartier": "6.3", "y": "2264595", "x": "1570991", "eq_ville": "TOULOUSE", "eq_acces_metro": "Reynerie (A)", "eq_gestionnaire": "Mairie de Toulouse - DGA Culture"}, "geometry": {"type": "Point", "coordinates": [1.402856530825981, 43.57042284825562]}, "record_timestamp": "2017-01-01T06:00:05+01:00"},{"datasetid": "theatres-et-salles-de-spectacles", "recordid": "9f4f9c679cd31bd84b71e75db06651cce52b184b", "fields": {"id_secteur_postal": "31000", "eq_telephone": "05 61 63 13 13", "eq_nom_equipement": "HALLE AUX GRAINS", "eq_jauge_salle_de_spectacle": "2500 pl", "eq_site_web": "onct.toulouse.fr/halle-aux-grains", "geo_point_2d": [43.59978123962167, 1.453929976310654], "numero": "TOUT", "lib_off": "PL DOMINIQUE MARTIN DUPUY", "geo_shape": {"type": "Point", "coordinates": [1.453929976310654, 43.59978123962167]}, "eq_secteur": "1", "eq_acces_bus": "10, 16, 22, 27, 29, 78, 80", "eq_quartier": "1.3", "y": "2267779", "x": "1575176", "eq_ville": "TOULOUSE", "eq_acces_metro": "Fran\u00e7ois Verdier, Carmes (B)", "eq_gestionnaire": "Mairie de Toulouse - DGA Culture"}, "geometry": {"type": "Point", "coordinates": [1.453929976310654, 43.59978123962167]}, "record_timestamp": "2017-01-01T06:00:05+01:00"},{"datasetid": "theatres-et-salles-de-spectacles", "recordid": "5608637a34b7bd0cea53a7f06987453d2552c8c5", "fields": {"id_secteur_postal": "31200", "eq_telephone": "05 61 48 21 00", "eq_nom_equipement": "LE GRENIER THEATRE", "eq_jauge_salle_de_spectacle": "100 pl", "eq_site_web": "www.legreniertheatre.org", "geo_point_2d": [43.631441416788086, 1.472833857786351], "numero": "0014", "lib_off": "IMP DE GRAMONT", "geo_shape": {"type": "Point", "coordinates": [1.472833857786351, 43.631441416788086]}, "eq_secteur": "4", "eq_acces_bus": "19", "eq_quartier": "4.1", "y": "2271268", "x": "1576766", "eq_ville": "TOULOUSE", "eq_acces_metro": "Argoulets (A)", "eq_gestionnaire": "Association"}, "geometry": {"type": "Point", "coordinates": [1.472833857786351, 43.631441416788086]}, "record_timestamp": "2017-01-01T06:00:05+01:00"},{"datasetid": "theatres-et-salles-de-spectacles", "recordid": "565bb4b43fada1d5426040ea5525a22bd12e9445", "fields": {"id_secteur_postal": "31400", "eq_telephone": "05 61 52 24 33", "eq_nom_equipement": "MJC PONT DES DEMOISELLES", "eq_jauge_salle_de_spectacle": "200 pl", "eq_site_web": "www.toulouse.fr", "geo_point_2d": [43.58561840217492, 1.465930028252787], "numero": "0063B", "lib_off": "AV ANTOINE DE ST EXUPERY", "geo_shape": {"type": "Point", "coordinates": [1.465930028252787, 43.58561840217492]}, "eq_secteur": "5", "eq_acces_bus": "10", "eq_quartier": "5.1", "y": "2266188", "x": "1576116", "eq_ville": "TOULOUSE", "eq_gestionnaire": "Association"}, "geometry": {"type": "Point", "coordinates": [1.465930028252787, 43.58561840217492]}, "record_timestamp": "2017-01-01T06:00:05+01:00"},{"datasetid": "theatres-et-salles-de-spectacles", "recordid": "f70862bd557d20cf0104da91498092afaba8685f", "fields": {"id_secteur_postal": "31400", "eq_telephone": "05 81 91 79 19", "eq_nom_equipement": "NOUVEAU THEATRE JULES JULIEN", "eq_jauge_salle_de_spectacle": "345 pl", "eq_site_web": "www.sorano-julesjulien.toulouse.fr", "geo_point_2d": [43.574138870160596, 1.453662853498098], "numero": "0006", "lib_off": "AV DES ECOLES JULES JULIEN", "geo_shape": {"type": "Point", "coordinates": [1.453662853498098, 43.574138870160596]}, "eq_secteur": "5", "eq_acces_bus": "2", "eq_quartier": "5.2", "y": "2264931", "x": "1575102", "eq_ville": "TOULOUSE", "eq_acces_metro": "Saint Agne, Souazelong, Rangueil (B)", "eq_gestionnaire": "Mairie de Toulouse - DGA Culture"}, "geometry": {"type": "Point", "coordinates": [1.453662853498098, 43.574138870160596]}, "record_timestamp": "2017-01-01T06:00:05+01:00"},{"datasetid": "theatres-et-salles-de-spectacles", "recordid": "8f01f3cb2a8bd4ac32463193e864f61f8e312fc4", "fields": {"id_secteur_postal": "31400", "eq_telephone": "05 61 55 62 63", "eq_nom_equipement": "SALLE DU CAP - PAUL SABATIER", "eq_jauge_salle_de_spectacle": "729 pl", "eq_site_web": "www.univ-tlse3.fr", "geo_point_2d": [43.56121689427288, 1.463522235071124], "numero": "0120", "lib_off": "RTE DE NARBONNE", "geo_shape": {"type": "Point", "coordinates": [1.463522235071124, 43.56121689427288]}, "eq_secteur": "5", "eq_quartier": "5.2", "y": "2263481", "x": "1575872", "eq_ville": "TOULOUSE", "eq_acces_metro": "Universit\u00e9 Paul Sabatier (B), Facult\u00e9 de Pharmacie (B)", "eq_gestionnaire": "Autre institution publique"}, "geometry": {"type": "Point", "coordinates": [1.463522235071124, 43.56121689427288]}, "record_timestamp": "2017-01-01T06:00:05+01:00"},{"datasetid": "theatres-et-salles-de-spectacles", "recordid": "b255a1e8c66bf7b6cb46577d7353e2aa4231e391", "fields": {"id_secteur_postal": "31500", "eq_telephone": "05 61 48 25 52", "eq_nom_equipement": "THEATRE DE POCHE", "eq_jauge_salle_de_spectacle": "60 pl", "eq_site_web": "http://theatredepoche31.free.fr", "geo_point_2d": [43.6204431562745, 1.454050862838726], "numero": "0010", "lib_off": "RUE D EL ALAMEIN", "geo_shape": {"type": "Point", "coordinates": [1.454050862838726, 43.6204431562745]}, "eq_secteur": "4", "eq_quartier": "4.1", "y": "2270074", "x": "1575228", "eq_ville": "TOULOUSE", "eq_acces_metro": "SNCF (A)", "eq_gestionnaire": "Association"}, "geometry": {"type": "Point", "coordinates": [1.454050862838726, 43.6204431562745]}, "record_timestamp": "2017-01-01T06:00:05+01:00"},{"datasetid": "theatres-et-salles-de-spectacles", "recordid": "696df18c3cd0c3892399a5cc3003707d55dd3b15", "fields": {"id_secteur_postal": "31000", "eq_telephone": "05 61 63 13 13", "eq_nom_equipement": "THEATRE DU CAPITOLE", "eq_jauge_salle_de_spectacle": "1156 pl", "eq_site_web": "www.theatre-du-capitole.fr", "geo_point_2d": [43.603870792764354, 1.44405207645748], "numero": "0001", "lib_off": "PL DU CAPITOLE", "geo_shape": {"type": "Point", "coordinates": [1.44405207645748, 43.603870792764354]}, "eq_secteur": "1", "eq_acces_bus": "ncv", "eq_quartier": "1.1", "y": "2268248", "x": "1574387", "eq_ville": "TOULOUSE", "eq_acces_metro": "Capitole (A)", "eq_gestionnaire": "Mairie de Toulouse - DGA Culture"}, "geometry": {"type": "Point", "coordinates": [1.44405207645748, 43.603870792764354]}, "record_timestamp": "2017-01-01T06:00:05+01:00"},{"datasetid": "theatres-et-salles-de-spectacles", "recordid": "7e2e8c96a4853105a214dd24fbc35888f0befd71", "fields": {"id_secteur_postal": "31500", "eq_telephone": "05 61 48 38 29", "eq_nom_equipement": "THEATRE DU HANGAR", "eq_jauge_salle_de_spectacle": "44 pl", "eq_site_web": "http://theatrelehangar.over-blog.fr", "geo_point_2d": [43.61473112322195, 1.454381409671222], "numero": "0011", "lib_off": "RUE DES CHEMINOTS", "geo_shape": {"type": "Point", "coordinates": [1.454381409671222, 43.61473112322195]}, "eq_secteur": "4", "eq_acces_bus": "38, 42, 44", "eq_quartier": "4.1", "y": "2269439", "x": "1575243", "eq_ville": "TOULOUSE", "eq_acces_metro": "Marengo-SNCF (A)", "eq_gestionnaire": "Association"}, "geometry": {"type": "Point", "coordinates": [1.454381409671222, 43.61473112322195]}, "record_timestamp": "2017-01-01T06:00:05+01:00"},{"datasetid": "theatres-et-salles-de-spectacles", "recordid": "59955b538f788ecce489d4abc5ab98ca7c109811", "fields": {"id_secteur_postal": "31000", "eq_telephone": "05 61 23 62 00", "eq_nom_equipement": "CAVE POESIE", "eq_jauge_salle_de_spectacle": "65 / 50 pl", "eq_site_web": "www.cave.poesie.com", "geo_point_2d": [43.60718449749196, 1.442109265611545], "numero": "0071", "lib_off": "RUE DU TAUR", "geo_shape": {"type": "Point", "coordinates": [1.442109265611545, 43.60718449749196]}, "eq_secteur": "1", "eq_acces_bus": "nvc", "eq_quartier": "1.1", "y": "2268619", "x": "1574237", "eq_ville": "TOULOUSE", "eq_acces_metro": "Capitole (A),  Jeanne-D'Arc (B)", "eq_gestionnaire": "Association"}, "geometry": {"type": "Point", "coordinates": [1.442109265611545, 43.60718449749196]}, "record_timestamp": "2017-01-01T06:00:05+01:00"},{"datasetid": "theatres-et-salles-de-spectacles", "recordid": "50dfba5b0ccebdfd126069e5939f3d3b9274c3db", "fields": {"id_secteur_postal": "31400", "eq_telephone": "05 62 17 45 00", "eq_nom_equipement": "CENTRE CULTUREL LEONARD DE VINCI DE L'ENAC - THEATRE DE POCHE", "eq_jauge_salle_de_spectacle": "200 pl", "eq_site_web": "www.culture-enac.com", "geo_point_2d": [43.56532034432459, 1.479043026052645], "numero": "0007", "lib_off": "AV EDOUARD BELIN", "geo_shape": {"type": "Point", "coordinates": [1.479043026052645, 43.56532034432459]}, "eq_secteur": "5", "eq_acces_bus": "51, 68, 108", "eq_quartier": "5.2", "y": "2263914", "x": "1577134", "eq_ville": "TOULOUSE", "eq_acces_metro": "Facult\u00e9 de Pharmacie (B)", "eq_gestionnaire": "Association"}, "geometry": {"type": "Point", "coordinates": [1.479043026052645, 43.56532034432459]}, "record_timestamp": "2017-01-01T06:00:05+01:00"},{"datasetid": "theatres-et-salles-de-spectacles", "recordid": "5fffcfb801c07b2bb082d4c7cfea0f12b8b0e892", "fields": {"id_secteur_postal": "31000", "eq_telephone": "05 61 21 27 60", "eq_nom_equipement": "CHAPELLE DES CARMELITES", "eq_jauge_salle_de_spectacle": "180 pl", "eq_site_web": "www.toulouse.fr", "geo_point_2d": [43.607308171079616, 1.443270669654116], "numero": "0001", "lib_off": "RUE DE PERIGORD", "geo_shape": {"type": "Point", "coordinates": [1.443270669654116, 43.607308171079616]}, "eq_secteur": "1", "eq_acces_bus": "ncv, 15, 16, 23, 29, 38, 42, 44, 45, 70", "eq_quartier": "1.1", "y": "2268631", "x": "1574331", "eq_ville": "TOULOUSE", "eq_acces_metro": "Capitole (A), Jeanne d'Arc (B)", "eq_gestionnaire": "Mairie de Toulouse - DGA Culture"}, "geometry": {"type": "Point", "coordinates": [1.443270669654116, 43.607308171079616]}, "record_timestamp": "2017-01-01T06:00:05+01:00"},{"datasetid": "theatres-et-salles-de-spectacles", "recordid": "4d13ede263cfd78163dddfbbc41774f96d64655f", "fields": {"id_secteur_postal": "31300", "eq_telephone": "05 62 86 01 67", "eq_nom_equipement": "ESPACE ROGUET - MJC ROGUET", "eq_jauge_salle_de_spectacle": "150 pl", "eq_site_web": "www.haute-garonne.fr", "geo_point_2d": [43.59616432258308, 1.427390170500713], "numero": "0009", "lib_off": "RUE DE GASCOGNE", "geo_shape": {"type": "Point", "coordinates": [1.427390170500713, 43.59616432258308]}, "eq_secteur": "2", "eq_acces_bus": "14, 45, 66 (Arr\u00eat Roguet)", "eq_quartier": "2.1", "y": "2267417", "x": "1573026", "eq_ville": "TOULOUSE", "eq_acces_metro": "Saint-Cyprien-R\u00e9publique, Patte d'Oie (A)", "eq_gestionnaire": "Autre institution publique"}, "geometry": {"type": "Point", "coordinates": [1.427390170500713, 43.59616432258308]}, "record_timestamp": "2017-01-01T06:00:05+01:00"},{"datasetid": "theatres-et-salles-de-spectacles", "recordid": "22265c31b8ad7193f1ffac4afe2282341e140992", "fields": {"id_secteur_postal": "31300", "eq_telephone": "05 61 22 27 77", "eq_nom_equipement": "ESPACE SAINT CYPRIEN - CHAPEAU ROUGE", "eq_jauge_salle_de_spectacle": "93 pl", "eq_site_web": "www.cultures.toulouse.fr", "geo_point_2d": [43.59828278888357, 1.430915483400046], "numero": "0056", "lib_off": "ALL CHARLES DE FITTE", "geo_shape": {"type": "Point", "coordinates": [1.430915483400046, 43.59828278888357]}, "eq_secteur": "2", "eq_acces_bus": "1, 3, 45, 66 (Arr\u00eat St-Cyprien)", "eq_quartier": "2.1", "y": "2267647", "x": "1573315", "eq_ville": "TOULOUSE", "eq_acces_metro": "Capitole, Saint-Cyprien-R\u00e9publique (A)", "eq_gestionnaire": "Mairie de Toulouse - DGA Culture"}, "geometry": {"type": "Point", "coordinates": [1.430915483400046, 43.59828278888357]}, "record_timestamp": "2017-01-01T06:00:05+01:00"},{"datasetid": "theatres-et-salles-de-spectacles", "recordid": "b582191cbe10392aa7c04844ec6e857aa85861a8", "fields": {"id_secteur_postal": "31000", "eq_telephone": "0899 19 91 91", "eq_nom_equipement": "LA COMEDIE DE TOULOUSE", "eq_jauge_salle_de_spectacle": "300 pl", "eq_site_web": "www.lacomediedetoulouse.com", "geo_point_2d": [43.611689761792384, 1.441077413885324], "numero": "0016", "lib_off": "RUE SAINT GERMIER", "geo_shape": {"type": "Point", "coordinates": [1.441077413885324, 43.611689761792384]}, "eq_secteur": "1", "eq_acces_bus": "15, 16, 29, 45, 70", "eq_quartier": "1.3", "y": "2269121", "x": "1574163", "eq_ville": "TOULOUSE", "eq_acces_metro": "Jeanne d'Arc (B)", "eq_gestionnaire": "Structure commerciale"}, "geometry": {"type": "Point", "coordinates": [1.441077413885324, 43.611689761792384]}, "record_timestamp": "2017-01-01T06:00:05+01:00"},{"datasetid": "theatres-et-salles-de-spectacles", "recordid": "794583970a85623d53be258e353965faaf15f41a", "fields": {"id_secteur_postal": "31100", "eq_telephone": "05 61 50 43 98", "eq_nom_equipement": "LA FABRIQUE", "eq_jauge_salle_de_spectacle": "180 pl", "eq_site_web": "www.ciam-univ-toulouse2.fr", "geo_point_2d": [43.577705446437264, 1.404127261072395], "numero": "0005", "lib_off": "ALL ANTONIO MACHADO", "geo_shape": {"type": "Point", "coordinates": [1.404127261072395, 43.577705446437264]}, "eq_secteur": "6", "eq_acces_bus": "14", "eq_quartier": "6.3", "y": "2265402", "x": "1571109", "eq_ville": "TOULOUSE", "eq_acces_metro": "Mirail Universit\u00e9 (A)", "eq_gestionnaire": "Association"}, "geometry": {"type": "Point", "coordinates": [1.404127261072395, 43.577705446437264]}, "record_timestamp": "2017-01-01T06:00:05+01:00"},{"datasetid": "theatres-et-salles-de-spectacles", "recordid": "7942fb0921ca92173d713e9df88ef02c0e844795", "fields": {"id_secteur_postal": "31500", "eq_telephone": "05 61 54 23 60", "eq_nom_equipement": "SALLE DES FETES DE LIMAYRAC", "eq_site_web": "http://www.val-de-limayrac.info/info-limayrac/activites-salle.php", "geo_point_2d": [43.58947388313155, 1.47974179746311], "numero": "0022", "lib_off": "RUE XAVIER DARASSE", "geo_shape": {"type": "Point", "coordinates": [1.47974179746311, 43.58947388313155]}, "eq_secteur": "4", "eq_acces_bus": "23", "eq_quartier": "4.3", "y": "2266596", "x": "1577239", "eq_ville": "TOULOUSE", "eq_gestionnaire": "Mairie de Toulouse - DGA Culture"}, "geometry": {"type": "Point", "coordinates": [1.47974179746311, 43.58947388313155]}, "record_timestamp": "2017-01-01T06:00:05+01:00"},{"datasetid": "theatres-et-salles-de-spectacles", "recordid": "2152294c78d679ddfe18f8d7e0077ac9cc38a785", "fields": {"id_secteur_postal": "31000", "eq_telephone": "05 61 62 14 85", "eq_nom_equipement": "THEATRE DU GRAND ROND", "eq_jauge_salle_de_spectacle": "100 pl", "eq_site_web": "www.grand-rond.org", "geo_point_2d": [43.59861999892453, 1.453934613725937], "numero": "0023", "lib_off": "RUE DES POTIERS", "geo_shape": {"type": "Point", "coordinates": [1.453934613725937, 43.59861999892453]}, "eq_secteur": "1", "eq_acces_bus": "1, 10, 16, 22, 27, 29, 78, 80", "eq_quartier": "1.3", "y": "2267650", "x": "1575174", "eq_ville": "TOULOUSE", "eq_acces_metro": "Fran\u00e7ois Verdier (B)", "eq_gestionnaire": "Association"}, "geometry": {"type": "Point", "coordinates": [1.453934613725937, 43.59861999892453]}, "record_timestamp": "2017-01-01T06:00:05+01:00"},{"datasetid": "theatres-et-salles-de-spectacles", "recordid": "e80b45b8b8924b81f27944191be93ab1fab2f34d", "fields": {"id_secteur_postal": "31300", "eq_telephone": "05 62 21 51 78", "eq_nom_equipement": "THEATRE DU PONT NEUF", "eq_jauge_salle_de_spectacle": "50 pl", "eq_site_web": "www.theatredupontneuf.fr", "geo_point_2d": [43.59697347975306, 1.433277875733747], "numero": "0008", "lib_off": "PL BENOIT ARZAC", "geo_shape": {"type": "Point", "coordinates": [1.433277875733747, 43.59697347975306]}, "eq_secteur": "2", "eq_acces_bus": "1, 2, 3, 12, 14, 52, 53, 66, 78, 79, 80", "eq_quartier": "2.1", "y": "2267498", "x": "1573503", "eq_ville": "TOULOUSE", "eq_acces_metro": "Saint-Cyprien-R\u00e9publique (A)", "eq_gestionnaire": "Association"}, "geometry": {"type": "Point", "coordinates": [1.433277875733747, 43.59697347975306]}, "record_timestamp": "2017-01-01T06:00:05+01:00"},{"datasetid": "theatres-et-salles-de-spectacles", "recordid": "949e4eb4e11136ea64fe007f3dadf4bd84784753", "fields": {"id_secteur_postal": "31300", "eq_telephone": "05 61 42 10 70", "eq_nom_equipement": "THEATRE LE VENT DES SIGNES", "eq_jauge_salle_de_spectacle": "99 pl", "eq_site_web": "www.leventdessignes.com", "geo_point_2d": [43.59697453634828, 1.42937597908645], "numero": "0006", "lib_off": "IMP VARSOVIE", "geo_shape": {"type": "Point", "coordinates": [1.42937597908645, 43.59697453634828]}, "eq_secteur": "2", "eq_acces_bus": "1, 3, 14, 45, 66", "eq_quartier": "2.1", "y": "2267504", "x": "1573188", "eq_ville": "TOULOUSE", "eq_acces_metro": "Saint-Cyprien-R\u00e9publique (A)", "eq_gestionnaire": "Association"}, "geometry": {"type": "Point", "coordinates": [1.42937597908645, 43.59697453634828]}, "record_timestamp": "2017-01-01T06:00:05+01:00"},{"datasetid": "theatres-et-salles-de-spectacles", "recordid": "478a507b2d9bea17c048d9bdfdb2e9cdb5b313d9", "fields": {"id_secteur_postal": "31200", "eq_telephone": "05 34 40 61 31", "eq_nom_equipement": "CAFE THEATRE LE 57", "eq_jauge_salle_de_spectacle": "120 pl", "eq_site_web": "www.le57toulouse.com", "geo_point_2d": [43.616367638343, 1.439495810586026], "numero": "0057", "lib_off": "BD DES MINIMES", "geo_shape": {"type": "Point", "coordinates": [1.439495810586026, 43.616367638343]}, "eq_secteur": "3", "eq_acces_bus": "29", "eq_quartier": "3.1", "y": "2269643", "x": "1574045", "eq_ville": "TOULOUSE", "eq_acces_metro": "Claude Nougaro (B)", "eq_gestionnaire": "Structure commerciale"}, "geometry": {"type": "Point", "coordinates": [1.439495810586026, 43.616367638343]}, "record_timestamp": "2017-01-01T06:00:05+01:00"},{"datasetid": "theatres-et-salles-de-spectacles", "recordid": "e22bf2a64b48887ffc38565c96d7db259e3d2fd6", "fields": {"id_secteur_postal": "31100", "eq_telephone": "05 61 43 60 20", "eq_nom_equipement": "CENTRE CULTUREL ALBAN MINVILLE", "eq_jauge_salle_de_spectacle": "150 pl", "eq_site_web": "www.albanminville.toulouse.fr", "geo_point_2d": [43.56453682897309, 1.399073468794984], "numero": "0001", "lib_off": "PL MARTIN LUTHER KING", "geo_shape": {"type": "Point", "coordinates": [1.399073468794984, 43.56453682897309]}, "eq_secteur": "6", "eq_acces_bus": "14", "eq_quartier": "6.3", "y": "2263947", "x": "1570673", "eq_ville": "TOULOUSE", "eq_acces_metro": "Bellefontaine (A)", "eq_gestionnaire": "Mairie de Toulouse - DGA Culture"}, "geometry": {"type": "Point", "coordinates": [1.399073468794984, 43.56453682897309]}, "record_timestamp": "2017-01-01T06:00:05+01:00"},{"datasetid": "theatres-et-salles-de-spectacles", "recordid": "e0572247ccfd018171068ff916fa561b9e04cae2", "fields": {"id_secteur_postal": "31200", "eq_telephone": "05 61 22 51 77", "eq_nom_equipement": "CENTRE CULTUREL DES MINIMES", "eq_jauge_salle_de_spectacle": "42 pl", "eq_site_web": "www.centrecultureldesminimes.fr", "geo_point_2d": [43.62001755015156, 1.435127386109482], "numero": "0006", "lib_off": "RUE DU CAILLOU GRIS", "geo_shape": {"type": "Point", "coordinates": [1.435127386109482, 43.62001755015156]}, "eq_secteur": "3", "eq_acces_bus": "10, 15, 41, 59, 60, 69", "eq_quartier": "3.1", "y": "2270055", "x": "1573700", "eq_ville": "TOULOUSE", "eq_acces_metro": "Minimes - Claude Nougaro (B)", "eq_gestionnaire": "Association"}, "geometry": {"type": "Point", "coordinates": [1.435127386109482, 43.62001755015156]}, "record_timestamp": "2017-01-01T06:00:05+01:00"},{"datasetid": "theatres-et-salles-de-spectacles", "recordid": "bafffd339c4ea224231dd8fb1096a9950c285cb2", "fields": {"id_secteur_postal": "31100", "eq_telephone": "05 34 46 83 25", "eq_nom_equipement": "CENTRE CULTUREL HENRI DESBALS", "eq_jauge_salle_de_spectacle": "176 pl", "eq_site_web": "www.toulouse.fr", "geo_point_2d": [43.57945908246573, 1.411833444495626], "numero": "0128", "lib_off": "RUE HENRI DESBALS", "geo_shape": {"type": "Point", "coordinates": [1.411833444495626, 43.57945908246573]}, "eq_secteur": "2", "eq_acces_bus": "3", "eq_quartier": "2.3", "y": "2265585", "x": "1571735", "eq_ville": "TOULOUSE", "eq_acces_metro": "Bagatelle (A)", "eq_gestionnaire": "Mairie de Toulouse - DGA Culture"}, "geometry": {"type": "Point", "coordinates": [1.411833444495626, 43.57945908246573]}, "record_timestamp": "2017-01-01T06:00:05+01:00"},{"datasetid": "theatres-et-salles-de-spectacles", "recordid": "7f9d1a61dbf80dd881efa2cae8fff22338a5d313", "fields": {"id_secteur_postal": "31500", "eq_telephone": "05 31 22 99 70", "eq_nom_equipement": "CENTRE D'ANIMATION SOUPETARD", "eq_jauge_salle_de_spectacle": "100 pl", "eq_site_web": "www.toulouse.fr", "geo_point_2d": [43.61424415069264, 1.474651897622263], "numero": "0063", "lib_off": "CHE DE HEREDIA", "geo_shape": {"type": "Point", "coordinates": [1.474651897622263, 43.61424415069264]}, "eq_secteur": "4", "eq_acces_bus": "19, 37 Arr\u00eat Dinetard", "eq_quartier": "4.2", "y": "2269355", "x": "1576878", "eq_ville": "TOULOUSE", "eq_acces_metro": "Jolimont, Roseraie (A)", "eq_gestionnaire": "Mairie de Toulouse - DGA Culture"}, "geometry": {"type": "Point", "coordinates": [1.474651897622263, 43.61424415069264]}, "record_timestamp": "2017-01-01T06:00:05+01:00"},{"datasetid": "theatres-et-salles-de-spectacles", "recordid": "46fbf33400de61b93d7bbcac4660b95dca2a8f11", "fields": {"id_secteur_postal": "31000", "eq_telephone": "05 34 41 62 16", "eq_nom_equipement": "CICC - SAMBA RESILLE", "eq_jauge_salle_de_spectacle": "150 pl", "eq_site_web": "www.samba-resille.org", "geo_point_2d": [43.61139548371219, 1.446635554704433], "numero": "0038", "lib_off": "RUE ROQUELAINE", "geo_shape": {"type": "Point", "coordinates": [1.446635554704433, 43.61139548371219]}, "eq_secteur": "1", "eq_acces_bus": "38, 42, 44", "eq_quartier": "1.3", "y": "2269080", "x": "1574611", "eq_ville": "TOULOUSE", "eq_acces_metro": "Jeanne d\u2019Arc (B)", "eq_gestionnaire": "Association"}, "geometry": {"type": "Point", "coordinates": [1.446635554704433, 43.61139548371219]}, "record_timestamp": "2017-01-01T06:00:05+01:00"},{"datasetid": "theatres-et-salles-de-spectacles", "recordid": "5c2de1eb89ed4fba620ad2e71f2a457ce5230add", "fields": {"id_secteur_postal": "31500", "eq_telephone": "05 61 11 16  10", "eq_nom_equipement": "LE LIDO - CENTRE DES ARTS DU CIRQUE", "eq_jauge_salle_de_spectacle": "250 pl", "eq_site_web": "www.circolido.fr", "geo_point_2d": [43.62374160025749, 1.476707040581101], "numero": "0014", "lib_off": "RUE DE GAILLAC", "geo_shape": {"type": "Point", "coordinates": [1.476707040581101, 43.62374160025749]}, "eq_secteur": "4", "eq_acces_bus": "33, 39, 43, 75, 76", "eq_quartier": "4.2", "y": "2270407", "x": "1577063", "eq_ville": "TOULOUSE", "eq_acces_metro": "Argoulets (A)", "eq_gestionnaire": "Mairie de Toulouse - DGA Culture"}, "geometry": {"type": "Point", "coordinates": [1.476707040581101, 43.62374160025749]}, "record_timestamp": "2017-01-01T06:00:05+01:00"},{"datasetid": "theatres-et-salles-de-spectacles", "recordid": "2f9f3740db495678e8efa0601dc0beb9dc98c6a8", "fields": {"id_secteur_postal": "31100", "eq_telephone": "05 61 43 60 20", "eq_nom_equipement": "SALLE LAFOURGUETTE", "eq_jauge_salle_de_spectacle": "262 pl", "eq_site_web": "www.lafuorguette.com", "geo_point_2d": [43.56410019583647, 1.413755560717885], "numero": "0028", "lib_off": "RUE DE GIRONIS", "geo_shape": {"type": "Point", "coordinates": [1.413755560717885, 43.56410019583647]}, "eq_secteur": "6", "eq_quartier": "6.4", "y": "2263876", "x": "1571858", "eq_ville": "TOULOUSE", "eq_gestionnaire": "Mairie de Toulouse - DGA Culture"}, "geometry": {"type": "Point", "coordinates": [1.413755560717885, 43.56410019583647]}, "record_timestamp": "2017-01-01T06:00:05+01:00"},{"datasetid": "theatres-et-salles-de-spectacles", "recordid": "fa769d531070a5989d4edd828469eb859cece073", "fields": {"id_secteur_postal": "31000", "eq_telephone": "05 62 27 44 88", "eq_nom_equipement": "CENTRE CULTUREL BELLEGARDE", "eq_jauge_salle_de_spectacle": "80 pl assises", "eq_site_web": "www.toulouse.fr", "geo_point_2d": [43.6083254264458, 1.444607529170137], "numero": "0017", "lib_off": "RUE BELLEGARDE", "geo_shape": {"type": "Point", "coordinates": [1.444607529170137, 43.6083254264458]}, "eq_secteur": "1", "eq_acces_bus": "ncv, 15, 16, 23, 29, 38, 42, 44, 45, 70", "eq_quartier": "1.1", "y": "2268742", "x": "1574441", "eq_ville": "TOULOUSE", "eq_acces_metro": "Jeanne-D'Arc (B)", "eq_gestionnaire": "Mairie de Toulouse - DGA Culture"}, "geometry": {"type": "Point", "coordinates": [1.444607529170137, 43.6083254264458]}, "record_timestamp": "2017-01-01T06:00:05+01:00"},{"datasetid": "theatres-et-salles-de-spectacles", "recordid": "0bcab5fbe85779cfb3077cbdbb51fb80092847ac", "fields": {"id_secteur_postal": "31200", "eq_telephone": "05 61 47 37 55", "eq_nom_equipement": "CENTRE D'ANIMATION LALANDE", "eq_jauge_salle_de_spectacle": "200 pl", "eq_site_web": "www.toulouse.fr", "geo_point_2d": [43.64822739066429, 1.432891185117108], "numero": "0239", "lib_off": "AV DE FRONTON", "geo_shape": {"type": "Point", "coordinates": [1.432891185117108, 43.64822739066429]}, "eq_secteur": "3", "eq_acces_bus": "60, 69", "eq_quartier": "3.2", "y": "2273192", "x": "1573578", "eq_ville": "TOULOUSE", "eq_acces_metro": "La Vache (B)", "eq_gestionnaire": "Mairie de Toulouse - DGA Culture"}, "geometry": {"type": "Point", "coordinates": [1.432891185117108, 43.64822739066429]}, "record_timestamp": "2017-01-01T06:00:05+01:00"},{"datasetid": "theatres-et-salles-de-spectacles", "recordid": "8d053457fefd03a6358e7ba37e86b2c715ad3fca", "fields": {"id_secteur_postal": "31300", "eq_telephone": "05 61 59 98 78", "eq_nom_equipement": "CENTRE DE DEVELOPPEMENT CHOREGRAPHIQUE (CDC)", "eq_jauge_salle_de_spectacle": "90 pl", "eq_site_web": "www.cdctoulouse.com", "geo_point_2d": [43.59742331911178, 1.429277723818226], "numero": "0005", "lib_off": "AV ETIENNE BILLIERES", "geo_shape": {"type": "Point", "coordinates": [1.429277723818226, 43.59742331911178]}, "eq_secteur": "2", "eq_acces_bus": "3, 45, 66", "eq_quartier": "2.1", "y": "2267554", "x": "1573181", "eq_ville": "TOULOUSE", "eq_acces_metro": "Saint-Cyprien - r\u00e9publique (A)", "eq_gestionnaire": "Association"}, "geometry": {"type": "Point", "coordinates": [1.429277723818226, 43.59742331911178]}, "record_timestamp": "2017-01-01T06:00:05+01:00"},{"datasetid": "theatres-et-salles-de-spectacles", "recordid": "8383401c78679a895960db291c08696776fbdde3", "fields": {"id_secteur_postal": "31000", "eq_acces_bus": "10, 29, 78, 80", "eq_nom_equipement": "CHAPELLE SAINTE ANNE", "geo_point_2d": [43.59941797321655, 1.451003381220686], "numero": "0015", "lib_off": "RUE SAINTE ANNE", "geo_shape": {"type": "Point", "coordinates": [1.451003381220686, 43.59941797321655]}, "eq_secteur": "1", "eq_quartier": "1.1", "y": "2267743", "x": "1574939", "eq_ville": "TOULOUSE", "eq_acces_metro": "Fran\u00e7cois-Verdier (B)", "eq_gestionnaire": "Mairie de Toulouse - Autre Direction"}, "geometry": {"type": "Point", "coordinates": [1.451003381220686, 43.59941797321655]}, "record_timestamp": "2017-01-01T06:00:05+01:00"},{"datasetid": "theatres-et-salles-de-spectacles", "recordid": "b0d5691be896d384cdc7562a29774e447ecfa3c3", "fields": {"id_secteur_postal": "31500", "eq_telephone": "05 67 73 83 60", "eq_nom_equipement": "ESPACE BONNEFOY", "eq_jauge_salle_de_spectacle": "250 pl", "eq_site_web": "www.toulouse.fr", "geo_point_2d": [43.6163138895692, 1.453585492400053], "numero": "0004", "lib_off": "RUE DU FAUBOURG BONNEFOY", "geo_shape": {"type": "Point", "coordinates": [1.453585492400053, 43.6163138895692]}, "eq_secteur": "4", "eq_acces_bus": "38, 42, 44", "eq_quartier": "4.1", "y": "2269616", "x": "1575182", "eq_ville": "TOULOUSE", "eq_acces_metro": "Marengo - SNCF (A)", "eq_gestionnaire": "Mairie de Toulouse - DGA Culture"}, "geometry": {"type": "Point", "coordinates": [1.453585492400053, 43.6163138895692]}, "record_timestamp": "2017-01-01T06:00:05+01:00"},{"datasetid": "theatres-et-salles-de-spectacles", "recordid": "b1f4eaaf71ce978626bc13dff522aefcb4578fd9", "fields": {"id_secteur_postal": "31000", "eq_telephone": "05 62 27 60 60", "eq_nom_equipement": "ESPACE CROIX BARAGNON", "eq_jauge_salle_de_spectacle": "178 pl", "eq_site_web": "www.cultures.toulouse.fr", "geo_point_2d": [43.59981857074743, 1.447983074053986], "numero": "0024", "lib_off": "RUE CROIX BARAGNON", "geo_shape": {"type": "Point", "coordinates": [1.447983074053986, 43.59981857074743]}, "eq_secteur": "1", "eq_acces_bus": "15, 16, 23, 38, 42, 44, 70, 71", "eq_quartier": "1.1", "y": "2267792", "x": "1574696", "eq_ville": "TOULOUSE", "eq_acces_metro": "Esquirol (A), Carmes, Fran\u00e7ois Verdier (B)", "eq_gestionnaire": "Mairie de Toulouse - DGA Culture"}, "geometry": {"type": "Point", "coordinates": [1.447983074053986, 43.59981857074743]}, "record_timestamp": "2017-01-01T06:00:05+01:00"},{"datasetid": "theatres-et-salles-de-spectacles", "recordid": "44808a1de4a63e9b91645b783833d2bcc1cb6929", "fields": {"id_secteur_postal": "31300", "eq_telephone": "05 61 42 95 07", "eq_nom_equipement": "LE BIJOU", "eq_jauge_salle_de_spectacle": "100 pl", "eq_site_web": "www.le-bijou.net", "geo_point_2d": [43.58440092432004, 1.427594060885855], "numero": "0123", "lib_off": "AV DE MURET", "geo_shape": {"type": "Point", "coordinates": [1.427594060885855, 43.58440092432004]}, "eq_secteur": "2", "eq_acces_bus": "12", "eq_quartier": "2.2", "y": "2266110", "x": "1573018", "eq_ville": "TOULOUSE", "eq_gestionnaire": "Structure commerciale"}, "geometry": {"type": "Point", "coordinates": [1.427594060885855, 43.58440092432004]}, "record_timestamp": "2017-01-01T06:00:05+01:00"},{"datasetid": "theatres-et-salles-de-spectacles", "recordid": "270dae4529cea5d66fc1f4b25b504630e5f68e27", "fields": {"id_secteur_postal": "31000", "eq_telephone": "05 61 21 10 05", "eq_nom_equipement": "LE MANDALA", "eq_jauge_salle_de_spectacle": "140 pl", "eq_site_web": "www.lemandala.com", "geo_point_2d": [43.60592943517128, 1.427869514425947], "numero": "0023", "lib_off": "RUE DES AMIDONNIERS", "geo_shape": {"type": "Point", "coordinates": [1.427869514425947, 43.60592943517128]}, "eq_secteur": "1", "eq_acces_bus": "1,  16, 63, 70,  71", "eq_quartier": "1.2", "y": "2268501", "x": "1573085", "eq_ville": "TOULOUSE", "eq_acces_metro": "Saint-Cyprien R\u00e9publique ( A ),  Compans Caffarelli (B)", "eq_gestionnaire": "Structure commerciale"}, "geometry": {"type": "Point", "coordinates": [1.427869514425947, 43.60592943517128]}, "record_timestamp": "2017-01-01T06:00:05+01:00"},{"datasetid": "theatres-et-salles-de-spectacles", "recordid": "f89a7a7e8b543f88bf47dae393ef46d9243a29fc", "fields": {"id_secteur_postal": "31200", "eq_acces_bus": "19 - 26 - 36 - 40 - 41 - 44 - 73 - 114", "eq_nom_equipement": "LE METRONUM", "eq_jauge_salle_de_spectacle": "500 pl", "geo_point_2d": [43.640923874168315, 1.450061031538748], "numero": "TOUT", "lib_off": "RPT MADAME DE MONDONVILLE", "geo_shape": {"type": "Point", "coordinates": [1.450061031538748, 43.640923874168315]}, "eq_secteur": "3", "eq_quartier": "3.3", "y": "2272355", "x": "1574948", "eq_ville": "TOULOUSE", "eq_acces_metro": "Borderouge (B)", "eq_gestionnaire": "Mairie de Toulouse - DGA Culture"}, "geometry": {"type": "Point", "coordinates": [1.450061031538748, 43.640923874168315]}, "record_timestamp": "2017-01-01T06:00:05+01:00"},{"datasetid": "theatres-et-salles-de-spectacles", "recordid": "5e04eac308a8b550317286edf12b07ee983b19ec", "fields": {"id_secteur_postal": "31000", "eq_telephone": "05 81 76 06 91", "eq_nom_equipement": "LE REX DE L'HUMOUR", "eq_jauge_salle_de_spectacle": "250 pl", "eq_site_web": "www.lerexdelhumour.com", "geo_point_2d": [43.611958624250924, 1.438319987637999], "numero": "0015", "lib_off": "AV HONORE SERRES", "geo_shape": {"type": "Point", "coordinates": [1.438319987637999, 43.611958624250924]}, "eq_secteur": "1", "eq_acces_bus": "70, 71", "eq_quartier": "1.2", "y": "2269155", "x": "1573941", "eq_ville": "TOULOUSE", "eq_acces_metro": "Campans Caffarelli (B)", "eq_gestionnaire": "Structure commerciale"}, "geometry": {"type": "Point", "coordinates": [1.438319987637999, 43.611958624250924]}, "record_timestamp": "2017-01-01T06:00:05+01:00"},{"datasetid": "theatres-et-salles-de-spectacles", "recordid": "49f891f3627f73cad5ba7f1f35a0ade8b6f7c78e", "fields": {"id_secteur_postal": "31000", "eq_telephone": "05 61 21 11 52", "eq_nom_equipement": "PAVILLON MAZAR", "eq_jauge_salle_de_spectacle": "50 pl", "eq_site_web": "www.groupemerci.net", "geo_point_2d": [43.601863086111116, 1.441365536110863], "numero": "0005", "lib_off": "RUE DU PRIEURE", "geo_shape": {"type": "Point", "coordinates": [1.441365536110863, 43.601863086111116]}, "eq_secteur": "1", "eq_acces_bus": "ncv, 2, 10, 12, 14, 38, 78, 80", "eq_quartier": "1.1", "y": "2268029", "x": "1574166", "eq_ville": "TOULOUSE", "eq_acces_metro": "Esquirol, Capitole (A)", "eq_gestionnaire": "Association"}, "geometry": {"type": "Point", "coordinates": [1.441365536110863, 43.601863086111116]}, "record_timestamp": "2017-01-01T06:00:05+01:00"},{"datasetid": "theatres-et-salles-de-spectacles", "recordid": "566e1ae4fb00cca2e3374e7a62803e59656ee9ab", "fields": {"id_secteur_postal": "31200", "eq_telephone": "05 61 93 79 40", "eq_nom_equipement": "SALLE NOUGARO - LAC", "eq_jauge_salle_de_spectacle": "1500 / 400 pl", "eq_site_web": "www.sallenougaro.com", "geo_point_2d": [43.6212169830852, 1.408243520573767], "numero": "0020", "lib_off": "CHE DE GARRIC", "geo_shape": {"type": "Point", "coordinates": [1.408243520573767, 43.6212169830852]}, "eq_secteur": "3", "eq_acces_bus": "16", "eq_quartier": "3.2", "y": "2270229", "x": "1571533", "eq_ville": "TOULOUSE", "eq_gestionnaire": "Structure commerciale"}, "geometry": {"type": "Point", "coordinates": [1.408243520573767, 43.6212169830852]}, "record_timestamp": "2017-01-01T06:00:05+01:00"},{"datasetid": "theatres-et-salles-de-spectacles", "recordid": "026159085a426cac7b08f79ef3271f914f4d4970", "fields": {"id_secteur_postal": "31200", "eq_telephone": "05 34 51 34 66", "eq_nom_equipement": "THEATRE 2 L'ACTE - LE RING", "eq_jauge_salle_de_spectacle": "113 pl", "eq_site_web": "www.theatre2lacte.com", "geo_point_2d": [43.62217526304015, 1.40526920552264], "numero": "0151", "lib_off": "RTE DE BLAGNAC", "geo_shape": {"type": "Point", "coordinates": [1.40526920552264, 43.62217526304015]}, "eq_secteur": "3", "eq_acces_bus": "16, 70", "eq_quartier": "3.2", "y": "2270340", "x": "1571295", "eq_ville": "TOULOUSE", "eq_gestionnaire": "Association"}, "geometry": {"type": "Point", "coordinates": [1.40526920552264, 43.62217526304015]}, "record_timestamp": "2017-01-01T06:00:05+01:00"},{"datasetid": "theatres-et-salles-de-spectacles", "recordid": "0a400e78212595e839da63d8dbc6419f44318372", "fields": {"id_secteur_postal": "31500", "eq_telephone": "05 62 16 24 59", "eq_nom_equipement": "THEATRE DU CHIEN BLANC", "eq_jauge_salle_de_spectacle": "40 pl", "eq_site_web": "www.letheatreduchienblanc.fr", "geo_point_2d": [43.607938643580894, 1.456721500332304], "numero": "0025", "lib_off": "RUE DU GEN JEAN COMPANS", "geo_shape": {"type": "Point", "coordinates": [1.456721500332304, 43.607938643580894]}, "eq_secteur": "4", "eq_acces_bus": "23, 27, 37", "eq_quartier": "4.2", "y": "2268681", "x": "1575418", "eq_ville": "TOULOUSE", "eq_acces_metro": "Marengo SNCF (A)", "eq_gestionnaire": "Association"}, "geometry": {"type": "Point", "coordinates": [1.456721500332304, 43.607938643580894]}, "record_timestamp": "2017-01-01T06:00:05+01:00"},{"datasetid": "theatres-et-salles-de-spectacles", "recordid": "8113f3656a51def8d29fb4133008805220a0d685", "fields": {"id_secteur_postal": "31000", "eq_telephone": "05 62 30 99 77", "eq_nom_equipement": "THEATRE LE FIL A PLOMB", "eq_jauge_salle_de_spectacle": "70 pl", "eq_site_web": "www.theatrelefilaplomb.fr", "geo_point_2d": [43.60941371586985, 1.439190412648607], "numero": "0030", "lib_off": "RUE DE LA CHAINE", "geo_shape": {"type": "Point", "coordinates": [1.439190412648607, 43.60941371586985]}, "eq_secteur": "1", "eq_acces_bus": "ncv, 15, 16, 29, 45, 70", "eq_quartier": "1.1", "y": "2268871", "x": "1574006", "eq_ville": "TOULOUSE", "eq_acces_metro": "Campans Caffarelli, Jeanne D'Arc (B)", "eq_gestionnaire": "Association"}, "geometry": {"type": "Point", "coordinates": [1.439190412648607, 43.60941371586985]}, "record_timestamp": "2017-01-01T06:00:05+01:00"},{"datasetid": "theatres-et-salles-de-spectacles", "recordid": "3c76db56ac9ba04e5e42c4128b880e2865122568", "fields": {"id_secteur_postal": "31000", "eq_telephone": "06 10 02 63 70", "eq_nom_equipement": "THEATRE LES 3 T", "eq_jauge_salle_de_spectacle": "250 /135 /135 pl", "eq_site_web": "www.3tcafetheatre.com", "geo_point_2d": [43.60627705261304, 1.455660919571028], "numero": "0040", "lib_off": "RUE GABRIEL PERI", "geo_shape": {"type": "Point", "coordinates": [1.455660919571028, 43.60627705261304]}, "eq_secteur": "1", "eq_quartier": "1.3", "y": "2268498", "x": "1575329", "eq_ville": "TOULOUSE", "eq_acces_metro": "Jean Jaur\u00e8s (B)", "eq_gestionnaire": "Structure commerciale"}, "geometry": {"type": "Point", "coordinates": [1.455660919571028, 43.60627705261304]}, "record_timestamp": "2017-01-01T06:00:05+01:00"},{"datasetid": "theatres-et-salles-de-spectacles", "recordid": "405338858cb47265ab6f9541f73cf21fbc5f92e6", "fields": {"id_secteur_postal": "31000", "eq_telephone": "05 81 91 79 19", "eq_nom_equipement": "THEATRE SORANO", "eq_jauge_salle_de_spectacle": "430 pl", "eq_site_web": "www.sorano-julesjulien.toulouse.fr", "geo_point_2d": [43.59417815008793, 1.448956340347501], "numero": "0035", "lib_off": "ALL JULES GUESDE", "geo_shape": {"type": "Point", "coordinates": [1.448956340347501, 43.59417815008793]}, "eq_secteur": "5", "eq_acces_bus": "1, 2, 10, 29, 78, 80", "eq_quartier": "5.3", "y": "2267164", "x": "1574763", "eq_ville": "TOULOUSE", "eq_acces_metro": "Carmes, Palais de Justice (B)", "eq_gestionnaire": "Mairie de Toulouse - DGA Culture"}, "geometry": {"type": "Point", "coordinates": [1.448956340347501, 43.59417815008793]}, "record_timestamp": "2017-01-01T06:00:05+01:00"},{"datasetid": "theatres-et-salles-de-spectacles", "recordid": "0472114b4901fd866f2d4081a1d7ff91fcf812b1", "fields": {"id_secteur_postal": "31300", "eq_telephone": "05 62 74 49 49", "eq_nom_equipement": "ZENITH", "eq_jauge_salle_de_spectacle": "9000 pl", "eq_site_web": "www.cultures.toulouse.fr", "geo_point_2d": [43.59920787607298, 1.408371461204801], "numero": "0011", "lib_off": "AV RAYMOND BADIOU", "geo_shape": {"type": "Point", "coordinates": [1.408371461204801, 43.59920787607298]}, "eq_secteur": "2", "eq_acces_bus": "14, 46, 63, 64, 65, 67", "eq_quartier": "2.4", "y": "2267784", "x": "1571497", "eq_ville": "TOULOUSE", "eq_acces_metro": "Patte d'Oie, Ar\u00e8nes (A)", "eq_gestionnaire": "Structure commerciale"}, "geometry": {"type": "Point", "coordinates": [1.408371461204801, 43.59920787607298]}, "record_timestamp": "2017-01-01T06:00:05+01:00"},{"datasetid": "theatres-et-salles-de-spectacles", "recordid": "8330eca2411b9920ecfc7c5155e53573b254e0d9", "fields": {"id_secteur_postal": "31000", "eq_telephone": "05 61 22 3105", "eq_nom_equipement": "AUDITORIUM SAINT - PIERRE DES CUISINES", "eq_jauge_salle_de_spectacle": "402 pl", "eq_site_web": "www.conservatoire.mairie-toulouse.fr", "geo_point_2d": [43.604078930633825, 1.435461666133191], "numero": "0012", "lib_off": "PL SAINT PIERRE", "geo_shape": {"type": "Point", "coordinates": [1.435461666133191, 43.604078930633825]}, "eq_secteur": "1", "eq_acces_bus": "ncv, 1, 63", "eq_quartier": "1.1", "y": "2268284", "x": "1573694", "eq_ville": "TOULOUSE", "eq_acces_metro": "Capitole, Saint Cyprien R\u00e9publique (A) - Compans- Caffarelli (B)", "eq_gestionnaire": "Mairie de Toulouse - DGA Culture"}, "geometry": {"type": "Point", "coordinates": [1.435461666133191, 43.604078930633825]}, "record_timestamp": "2017-01-01T06:00:05+01:00"},{"datasetid": "theatres-et-salles-de-spectacles", "recordid": "96420b379d213d157835c14dfaabcd48a386c6ab", "fields": {"id_secteur_postal": "31200", "eq_telephone": "05 62 72 06 36", "eq_nom_equipement": "CAFE THEATRE LES MINIMES", "eq_jauge_salle_de_spectacle": "200 pl", "eq_site_web": "www.lesminimes.com", "geo_point_2d": [43.62090763316878, 1.435042607627482], "numero": "0006", "lib_off": "RUE GELIBERT", "geo_shape": {"type": "Point", "coordinates": [1.435042607627482, 43.62090763316878]}, "eq_secteur": "3", "eq_acces_bus": "29", "eq_quartier": "3.1", "y": "2270154", "x": "1573695", "eq_ville": "TOULOUSE", "eq_acces_metro": "Minimes-Claude-Nougaro (B)", "eq_gestionnaire": "Structure commerciale"}, "geometry": {"type": "Point", "coordinates": [1.435042607627482, 43.62090763316878]}, "record_timestamp": "2017-01-01T06:00:05+01:00"},{"datasetid": "theatres-et-salles-de-spectacles", "recordid": "80cb1e7a50f0f05876b71f54d98b5e81989efb2c", "fields": {"id_secteur_postal": "31100", "eq_telephone": "05 31 22 96 81", "eq_nom_equipement": "CENTRE D'ANIMATION SAINT SIMON", "eq_jauge_salle_de_spectacle": "120 places", "eq_site_web": "www.toulouse.fr", "geo_point_2d": [43.561673056454865, 1.378994128328354], "numero": "0010", "lib_off": "CHE DE LIFFARD", "geo_shape": {"type": "Point", "coordinates": [1.378994128328354, 43.561673056454865]}, "eq_secteur": "6", "eq_acces_bus": "87, 53, 48 + 10mns \u00e0 pieds (arr\u00eats Charpy/chemin Tucaut/ Guilhermy)", "eq_quartier": "6.4", "y": "2263660", "x": "1569045", "eq_ville": "TOULOUSE", "eq_acces_metro": "Bass-Combo (A)", "eq_gestionnaire": "Mairie de Toulouse - DGA Culture"}, "geometry": {"type": "Point", "coordinates": [1.378994128328354, 43.561673056454865]}, "record_timestamp": "2017-01-01T06:00:05+01:00"},{"datasetid": "theatres-et-salles-de-spectacles", "recordid": "8d2a82b0922c8af32ca07560c18791a0e9e9ca47", "fields": {"id_secteur_postal": "31000", "eq_telephone": "05 61 22 28 61", "eq_nom_equipement": "CONSERVATOIRE A RAYONNEMENT REGIONAL (CRR) - ESPACE VARESE", "eq_site_web": "www.conservatoirerayonnementregional.toulouse.fr", "geo_point_2d": [43.603263520744086, 1.438406176259182], "numero": "0017", "lib_off": "RUE LARREY", "geo_shape": {"type": "Point", "coordinates": [1.438406176259182, 43.603263520744086]}, "eq_secteur": "1", "eq_acces_bus": "ncv", "eq_quartier": "1.1", "y": "2268189", "x": "1573930", "eq_ville": "TOULOUSE", "eq_acces_metro": "Capitole, Esquirol (A)", "eq_gestionnaire": "Mairie de Toulouse - DGA Culture"}, "geometry": {"type": "Point", "coordinates": [1.438406176259182, 43.603263520744086]}, "record_timestamp": "2017-01-01T06:00:05+01:00"},{"datasetid": "theatres-et-salles-de-spectacles", "recordid": "aa81fb9894fef57d64de89af36c3ee366f3cad5e", "fields": {"id_secteur_postal": "31200", "eq_telephone": "05 34 43 24 91", "eq_nom_equipement": "ESPACE JOB", "eq_jauge_salle_de_spectacle": "134 pl - 60m2 plateau", "eq_site_web": "www.cultures.toulouse.fr", "geo_point_2d": [43.616852403168835, 1.408357360161728], "numero": "0105", "lib_off": "RTE DE BLAGNAC", "geo_shape": {"type": "Point", "coordinates": [1.408357360161728, 43.616852403168835]}, "eq_secteur": "3", "eq_acces_bus": "16, 70", "eq_quartier": "3.2", "y": "2269744", "x": "1571533", "eq_ville": "TOULOUSE", "eq_gestionnaire": "Mairie de Toulouse - DGA Culture"}, "geometry": {"type": "Point", "coordinates": [1.408357360161728, 43.616852403168835]}, "record_timestamp": "2017-01-01T06:00:05+01:00"},{"datasetid": "theatres-et-salles-de-spectacles", "recordid": "3ac81f4600906c472da9f6b9542cbdd2be7a6c60", "fields": {"id_secteur_postal": "31000", "eq_telephone": "05 61 62 80 72", "eq_nom_equipement": "INSTITUTO CERVANTES", "eq_jauge_salle_de_spectacle": "130 pl (160m2)", "eq_site_web": "www.toulouse.cervantes.es/fr", "geo_point_2d": [43.61311547992354, 1.441325968547289], "numero": "0031", "lib_off": "RUE DES CHALETS", "geo_shape": {"type": "Point", "coordinates": [1.441325968547289, 43.61311547992354]}, "eq_secteur": "1", "eq_acces_bus": "15, 16, 29, 45, 70 (Concorde)", "eq_quartier": "1.3", "y": "2269279", "x": "1574186", "eq_ville": "TOULOUSE", "eq_acces_metro": "Campans-Caffarelli (B) / Jeanne d'Arc (B)", "eq_gestionnaire": "Association"}, "geometry": {"type": "Point", "coordinates": [1.441325968547289, 43.61311547992354]}, "record_timestamp": "2017-01-01T06:00:05+01:00"},{"datasetid": "theatres-et-salles-de-spectacles", "recordid": "ddae64139c6c9e8cd8d0bb1298f72367e0c04a91", "fields": {"id_secteur_postal": "31200", "eq_telephone": "05 61 57 99 28", "eq_nom_equipement": "SALLE ERNEST RENAN", "eq_jauge_salle_de_spectacle": "230 pl", "geo_point_2d": [43.63666306585694, 1.442484436954949], "numero": "0005", "lib_off": "CHE D AUDIBERT", "geo_shape": {"type": "Point", "coordinates": [1.442484436954949, 43.63666306585694]}, "eq_secteur": "3", "eq_quartier": "3.3", "y": "2271893", "x": "1574328", "eq_ville": "TOULOUSE", "eq_gestionnaire": "Mairie de Toulouse - DGA Culture"}, "geometry": {"type": "Point", "coordinates": [1.442484436954949, 43.63666306585694]}, "record_timestamp": "2017-01-01T06:00:05+01:00"},{"datasetid": "theatres-et-salles-de-spectacles", "recordid": "b0d151ade36580e8c771ad3e6abdf0b0b4630bd8", "fields": {"id_secteur_postal": "31200", "eq_telephone": "05 61 73 18 51", "eq_nom_equipement": "THEATRE DE LA VIOLETTE", "eq_jauge_salle_de_spectacle": "46 pl", "eq_site_web": "www.theatredelaviolette.com", "geo_point_2d": [43.63928342882638, 1.455965741956405], "numero": "0067", "lib_off": "CHE PUJIBET", "geo_shape": {"type": "Point", "coordinates": [1.455965741956405, 43.63928342882638]}, "eq_secteur": "3", "eq_acces_bus": "19", "eq_quartier": "3.3", "y": "2272164", "x": "1575421", "eq_ville": "TOULOUSE", "eq_acces_metro": "Borderouge (B)", "eq_gestionnaire": "Association"}, "geometry": {"type": "Point", "coordinates": [1.455965741956405, 43.63928342882638]}, "record_timestamp": "2017-01-01T06:00:05+01:00"},{"datasetid": "theatres-et-salles-de-spectacles", "recordid": "85b940d63167e1c1b389305d1b1fa2ba7f9e780d", "fields": {"id_secteur_postal": "31400", "eq_telephone": "05 62 26 43 66", "eq_nom_equipement": "THEATRE DU PAVE", "eq_jauge_salle_de_spectacle": "208 pl", "eq_site_web": "www.theatredupave.org", "geo_point_2d": [43.58097169931458, 1.447619999214681], "numero": "0034", "lib_off": "RUE MARAN", "geo_shape": {"type": "Point", "coordinates": [1.447619999214681, 43.58097169931458]}, "eq_secteur": "5", "eq_acces_bus": "34", "eq_quartier": "5.3", "y": "2265699", "x": "1574628", "eq_ville": "TOULOUSE", "eq_acces_metro": "Empalot, Saint-Michel Marcel-Langer, Saint-Agne SNCF (B)", "eq_gestionnaire": "Association"}, "geometry": {"type": "Point", "coordinates": [1.447619999214681, 43.58097169931458]}, "record_timestamp": "2017-01-01T06:00:05+01:00"},{"datasetid": "theatres-et-salles-de-spectacles", "recordid": "08edbdfa3b502ceeff841ef25020ca95d1dfc9d1", "fields": {"id_secteur_postal": "31300", "eq_telephone": "05 62 48 54 77", "eq_nom_equipement": "THEATRE GARONNE", "eq_jauge_salle_de_spectacle": "255 / 224 /100 pl", "eq_site_web": "www.theatregaronne.com", "geo_point_2d": [43.60272614401092, 1.42533813597846], "numero": "0001", "lib_off": "AV DU CHATEAU D EAU", "geo_shape": {"type": "Point", "coordinates": [1.42533813597846, 43.60272614401092]}, "eq_secteur": "2", "eq_acces_bus": "1, 45", "eq_quartier": "2.1", "y": "2268149", "x": "1572874", "eq_ville": "TOULOUSE", "eq_acces_metro": "Saint-Cyprien-R\u00e9publique (A)", "eq_gestionnaire": "Association"}, "geometry": {"type": "Point", "coordinates": [1.42533813597846, 43.60272614401092]}, "record_timestamp": "2017-01-01T06:00:05+01:00"},{"datasetid": "theatres-et-salles-de-spectacles", "recordid": "6eaf066d8046515267ab2bcbce1145af7d7d78af", "fields": {"id_secteur_postal": "31000", "eq_telephone": "05 34 45 05 00", "eq_nom_equipement": "THEATRE NATIONAL DE TOULOUSE (TNT)", "eq_jauge_salle_de_spectacle": "888 / 250 / 75 pl", "eq_site_web": "www.tnt-cite.com", "geo_point_2d": [43.60400215831146, 1.449809274098695], "numero": "0001", "lib_off": "RUE PIERRE BAUDIS", "geo_shape": {"type": "Point", "coordinates": [1.449809274098695, 43.60400215831146]}, "eq_secteur": "1", "eq_acces_bus": "ncv, 14, 16, 22, 29, 38", "eq_quartier": "1.1", "y": "2268254", "x": "1574852", "eq_ville": "TOULOUSE", "eq_acces_metro": "Jean-Jaur\u00e8s (A, B)", "eq_gestionnaire": "Structure mixte"}, "geometry": {"type": "Point", "coordinates": [1.449809274098695, 43.60400215831146]}, "record_timestamp": "2017-01-01T06:00:05+01:00"}]